Title,Title,Latitude,Longitude
YUFF-0001,Ðerdap,44.52,21.97
YUFF-0002,Fruška Gora,45.15,19.70
YUFF-0003,Kopaonik,43.19,20.47
YUFF-0004,Šar-planina,42.09,20.58
YUFF-0005,Tara,43.57,19.18
YUFF-0006,Avala,44.37,20.32
YUFF-0007,Begecka jama,45.13,19.41
YUFF-0008,Dolina Pcinje,42.24,22
YUFF-0009,Golija,43.18,20.20
YUFF-0010,Grmija,42.37,21.14
YUFF-0011,Jegricka,45.23,20.04
YUFF-0012,Kamaraš,46.09,19.59
YUFF-0013,Klisura reke Gradac,44.14,19.52
YUFF-0014,Kosmaj,44.36,20.29
YUFF-0015,Lepterija – Sokograd,43.38,21.52
YUFF-0016,Miruša,42.27,20.37
YUFF-0017,Ovcarsko-kablarska klisura,43.55,20.13
YUFF-0018,Palic,46.06,19.45
YUFF-0019,Ponjavica,44.44,20.46
YUFF-0020,Sicevacka klisura,43.19,22.06
YUFF-0021,Suboticka pešcara,46.08,19.42
YUFF-0022,Stara planina,43.12,22.45
YUFF-0023,Stara Tisa kod Bisernog ostrva,45.30,20.04
YUFF-0024,Šargan – Mokra Gora,43.50,19.34
YUFF-0025,Tikvara,45.15,19.18
YUFF-0026,Veliko ratno ostrvo,44.50,20.26
YUFF-0027,Vlasina,43.47,22.20
YUFF-0028,Vršacke planine,45.07,21.23
YUFF-0029,Bagremara,45.16,19.23
YUFF-0030,Danilova kosa,44.21,19.09
YUFF-0031,Deliblatska pešcara,44.53,21.06
YUFF-0032,Gornje Podunavlje,45.46,18.56
YUFF-0033,Jelasnicka klisura,43.17,22.03
YUFF-0034,Karacorcevo,45.16,19.18
YUFF-0035,Klisura reke Trešnjice,44.08,19.32
YUFF-0036,Koviljsko-petrovaradinski Rit,45.11,20.01
YUFF-0037,Kraljevac,44.50,21.01
YUFF-0038,Ludaško jezero,46.05,19.49
YUFF-0039,Obedska bara,44.41,20.00
YUFF-0040,Pašnjaci velike droplje,45.54,20.22
YUFF-0041,Selevenjske pustare,46.08,19.53
YUFF-0042,Slano Kopovo,45.37,20.12
YUFF-0043,Stari Begej – Carska Bara,45.17,20.23
YUFF-0044,Uvac,43.21,19.57
YUFF-0045,Venerina padina,42.55,22.37
YUFF-0046,Zasavica,44.57,19.31
YUFF-0047,Okanj bara,45.28,20.18
YUFF-0048,Titelski breg,45.15,20.14
YUFF-0049,Rusanda,45.55,20.29
YUFF-0050,Mali vršacki rit,45.15,21.35
YUFF-0051,Kucaj – Beljanica,44.06,21.72
YUFF-0052,Forland leve obale Dunava kod Beograda,44.85,20.42
YUFF-0053,Varoš ,45.03,19.17
YUFF-0054,Vinicna,44.93,19.15
YUFF-0055,Majzecova bašta,44.93,19.18
YUFF-0056,Racenovci,44.90,19.016
YUFF-0057,Stara Vraticna,44.92,19.24
YUFF-0058,Košutnjak,44.77,20.44
YUFF-0059,Ivanovacka ada,44.73,20.69
YUFF-0060,Mustafa,44.38,21.84
YUFF-0061,Felješana,44.36,21.85
YUFF-0062,Bukovo,44.22,22.50
YUFF-0063,Crna reka,44.12,19.98
YUFF-0064,calacki potok,44.11,20.00
YUFF-0065,Velika pec – Vražji vir,44.10,20.00
YUFF-0066,Zabalac,44.11,20.08
YUFF-0067,Veliki šturac,44.13,20.55
YUFF-0068,Brzansko moravište,44.12,21.17
YUFF-0069,Busovata,44.12,21.75
YUFF-0070,Iznad Tatalije,43.95,19.79
YUFF-0071,Tesne jaruge,43.94,19.78
YUFF-0072,Zelenika,43.92,19.79
YUFF-0073,Klisura Djetinje,43.86,19.80
YUFF-0074,Kalenic,43.78,20.98
YUFF-0075,Mala jasenova glava,43.79,21.69
YUFF-0076,Rtanj,43.75,21.90
YUFF-0077,Klisura reke Mileševke,43.17,20.14
YUFF-0078,Paljevine,43.42,20.06
YUFF-0079,Goc – Gvozdac,43.56,20.76
YUFF-0080,Vrh Zeljina-Plocka cuka,43.47,20.80
YUFF-0081,Prokop,43.42,21.38
YUFF-0082,Gutavica,43.04,20.06
YUFF-0083,Suva planina,43.20,22.18
YUFF-0084,Jerma,42.92,22.63
YUFF-0085,Zelenicje,42.89,22.22
YUFF-0086,Kukavica,42.79,21.99
YUFF-0087,Ritovi donjeg Potisja,45.41,20.22
YUFF-0088,Zlatibor,43.67,19.68
YUFF-0089,Prugovo,44.56,21.19
YUFF-0090,Karaš-Nera,44.86,21.30
YUFF-0091,Zaovine,43.87,19.39
YUFF-0092,Dolina malog Rzava,43.73,20.05
YUFF-0093,Ozrenske livade,43.58,21.86
YUFF-0094,Kamena gora,43.28,19.56
YUFF-0095,Ozren-Jadovnik,43.28,19.64
YUFF-0096,Šume Ivlje,43.39,19.82
YUFF-0097,Karajukica bunari – Peštersko polje,43.09,20.08
YUFF-0098,celije,43.41,21.18
YUFF-0099,Radan,43.01,21.51
YUFF-0100,Rajac,44.14,20.23
YUFF-0101,Krupacko blato,43.10,22.67
YUFF-0102,Djavolja varoš,42.99,21.4
YUFF-0103,Rogot,44.14,21.09
YUFF-0104,Tatkova zemunica,43.37,21.61
YUFF-0105,Lalinacka slatina,43.34,21.75
YUFF-0106,Lojanik,43.68,20.61
YUFF-0107,Jarešnik,42.40,22.39
YUFF-0108,Banjicka šuma,44.77,20.47
YUFF-0109,Bara Trskovaca,44.81,19.83
YUFF-0110,Gljive ade Ciganlije,44.78,20.38
YUFF-0111,Ritske šume na Mackovom prudu,45.22,19.76
YUFF-0112,Osredak,43.62,20.89
YUFF-0113,Parkovi Vrnjacke banje,43.62,20.89
YUFF-0114,Šuma Junakovic,45.68,19.05
YUFF-0115,Park Bukovicke banje,44.31,20.55
YUFF-0116,carnok,45.53,19.66
YUFF-0117,Prerast u kanjonu Vratne,44.38,22.32
YUFF-0118,Lazarev kanjon,44.01,21.91
YUFF-0119,Lipovicka šuma-dugi rt,44.65,20.42
YUFF-0120,Topciderski park,44.78,20.44
YUFF-0121,Miljakovacka šuma,44.74,20.46
YUFF-0122,Beljanska bara,45.56,19.87
YUFF-0123,Backotoploske doline,45.86,19.62
YUFF-0124,Veliko blato,44.86,20.49
YUFF-0125,Zvezdarska šuma,44.80,20.51
YUFF-0126,Bojcinska šuma,44.73,20.16
